{
"type": "FeatureCollection",
"name": "transporte",
"crs": { "type": "name", "properties": { "name": "urn:ogc:def:crs:OGC:1.3:CRS84" } },
"features": [
{ "type": "Feature", "properties": { "fid": 1, "osm_id": "1590220519", "code": 5641, "fclass": "BASE DE TAXI", "name": "Taxi Seguro" }, "geometry": { "type": "Point", "coordinates": [ -99.0383838, 19.3919112 ] } },
{ "type": "Feature", "properties": { "fid": 2, "osm_id": "2682370963", "code": 5621, "fclass": "MEXIBUS", "name": "Sor Juana Inés de la Cruz" }, "geometry": { "type": "Point", "coordinates": [ -99.0141595, 19.4054221 ] } },
{ "type": "Feature", "properties": { "fid": 3, "osm_id": "2715816241", "code": 5621, "fclass": "MEXIBUS", "name": "Las Torres" }, "geometry": { "type": "Point", "coordinates": [ -98.9898793, 19.4143596 ] } },
{ "type": "Feature", "properties": { "fid": 4, "osm_id": "3485759973", "code": 5621, "fclass": "MEXIBUS", "name": "Rayito de Sol" }, "geometry": { "type": "Point", "coordinates": [ -99.0038076, 19.4065971 ] } },
{ "type": "Feature", "properties": { "fid": 5, "osm_id": "4360235753", "code": 5622, "fclass": "MEXIBUS", "name": "Parada Cuchilla" }, "geometry": { "type": "Point", "coordinates": [ -99.048468, 19.4536213 ] } },
{ "type": "Feature", "properties": { "fid": 6, "osm_id": "4741998423", "code": 5621, "fclass": "MEXIBUS", "name": "El Castillito" }, "geometry": { "type": "Point", "coordinates": [ -99.0118045, 19.404262 ] } },
{ "type": "Feature", "properties": { "fid": 7, "osm_id": "5332283640", "code": 5621, "fclass": "MEXIBUS", "name": "Palacio Municipal" }, "geometry": { "type": "Point", "coordinates": [ -99.0176859, 19.4071279 ] } },
{ "type": "Feature", "properties": { "fid": 8, "osm_id": "5861053462", "code": 5621, "fclass": "MEXIBUS", "name": "El Barquito" }, "geometry": { "type": "Point", "coordinates": [ -99.0480439, 19.4199498 ] } },
{ "type": "Feature", "properties": { "fid": 9, "osm_id": "5861055720", "code": 5621, "fclass": "MEXIBUS", "name": "Maravillas" }, "geometry": { "type": "Point", "coordinates": [ -99.0444793, 19.4189961 ] } },
{ "type": "Feature", "properties": { "fid": 10, "osm_id": "5861066533", "code": 5621, "fclass": "MEXIBUS", "name": "Vicente Riva Palacio" }, "geometry": { "type": "Point", "coordinates": [ -99.0410776, 19.4180779 ] } },
{ "type": "Feature", "properties": { "fid": 11, "osm_id": "5861117040", "code": 5621, "fclass": "MEXIBUS", "name": "Nezahualcóyotl" }, "geometry": { "type": "Point", "coordinates": [ -99.0319031, 19.4140672 ] } },
{ "type": "Feature", "properties": { "fid": 12, "osm_id": "5861122474", "code": 5621, "fclass": "MEXIBUS", "name": "Virgencitas" }, "geometry": { "type": "Point", "coordinates": [ -99.0347867, 19.4154712 ] } },
{ "type": "Feature", "properties": { "fid": 13, "osm_id": "5861129520", "code": 5621, "fclass": "MEXIBUS", "name": "Lago de Chapala" }, "geometry": { "type": "Point", "coordinates": [ -99.0273593, 19.4118795 ] } },
{ "type": "Feature", "properties": { "fid": 14, "osm_id": "5861132560", "code": 5621, "fclass": "MEXIBUS", "name": "Adolfo López Mateos" }, "geometry": { "type": "Point", "coordinates": [ -99.0219148, 19.4091711 ] } },
{ "type": "Feature", "properties": { "fid": 15, "osm_id": "5861170141", "code": 5621, "fclass": "MEXIBUS", "name": "General Vicente Villada" }, "geometry": { "type": "Point", "coordinates": [ -99.0074562, 19.4022869 ] } },
{ "type": "Feature", "properties": { "fid": 16, "osm_id": "5862368394", "code": 5621, "fclass": "MEXIBUS", "name": "Bordo de Xochiaca" }, "geometry": { "type": "Point", "coordinates": [ -98.9950652, 19.4155686 ] } },
{ "type": "Feature", "properties": { "fid": 17, "osm_id": "5862396204", "code": 5621, "fclass": "MEXIBUS", "name": "Las Mañanitas" }, "geometry": { "type": "Point", "coordinates": [ -99.0016954, 19.4105522 ] } },
{ "type": "Feature", "properties": { "fid": 18, "osm_id": "5862396205", "code": 5621, "fclass": "MEXIBUS", "name": "Rancho Grande" }, "geometry": { "type": "Point", "coordinates": [ -98.9992906, 19.4150361 ] } },
{ "type": "Feature", "properties": { "fid": 19, "osm_id": "6426918438", "code": 5621, "fclass": "MEXIBUS", "name": "Av. Valle del Yang-Tse" }, "geometry": { "type": "Point", "coordinates": [ -99.0654066, 19.4950266 ] } },
{ "type": "Feature", "properties": { "fid": 20, "osm_id": "6426918440", "code": 5621, "fclass": "MEXIBUS", "name": "Valle Yukón" }, "geometry": { "type": "Point", "coordinates": [ -99.066257, 19.4930026 ] } },
{ "type": "Feature", "properties": { "fid": 21, "osm_id": "6426918442", "code": 5621, "fclass": "MEXIBUS", "name": "Valle Zambezi" }, "geometry": { "type": "Point", "coordinates": [ -99.0667959, 19.491767 ] } },
{ "type": "Feature", "properties": { "fid": 22, "osm_id": "6426918444", "code": 5621, "fclass": "MEXIBUS", "name": "Calpulalpan" }, "geometry": { "type": "Point", "coordinates": [ -99.0673801, 19.4903671 ] } },
{ "type": "Feature", "properties": { "fid": 23, "osm_id": "8433442146", "code": 5622, "fclass": "MEXIBUS", "name": "Autobuses Yosondua" }, "geometry": { "type": "Point", "coordinates": [ -99.0069237, 19.394519 ] } },
{ "type": "Feature", "properties": { "fid": 24, "osm_id": "8433462588", "code": 5622, "fclass": "AUTOBUS", "name": "Terminal de autobuses AMAO" }, "geometry": { "type": "Point", "coordinates": [ -99.0093487, 19.4100018 ] } },
{ "type": "Feature", "properties": { "fid": 25, "osm_id": "8570222329", "code": 5641, "fclass": "BASE DE TAXI", "name": null }, "geometry": { "type": "Point", "coordinates": [ -99.046298, 19.4905827 ] } },
{ "type": "Feature", "properties": { "fid": 26, "osm_id": "8570222330", "code": 5641, "fclass": "BASE DE TAXI", "name": null }, "geometry": { "type": "Point", "coordinates": [ -99.0542574, 19.472562 ] } },
{ "type": "Feature", "properties": { "fid": 27, "osm_id": "9758198535", "code": 5641, "fclass": "BASE DE TAXI", "name": null }, "geometry": { "type": "Point", "coordinates": [ -98.996459, 19.4016513 ] } },
{ "type": "Feature", "properties": { "fid": 28, "osm_id": "10972363784", "code": 5621, "fclass": "AUTOBUS", "name": "Ruta 47 Fes Aragon Metro Impulsora" }, "geometry": { "type": "Point", "coordinates": [ -99.0457231, 19.4771647 ] } },
{ "type": "Feature", "properties": { "fid": 29, "osm_id": "11423297573", "code": 5641, "fclass": "BASE DE TAXI", "name": "Base de taxi" }, "geometry": { "type": "Point", "coordinates": [ -99.0483556, 19.48544 ] } },
{ "type": "Feature", "properties": { "fid": 30, "osm_id": "11423302569", "code": 5641, "fclass": "BASE DE TAXI", "name": "Base de taxi" }, "geometry": { "type": "Point", "coordinates": [ -99.0448933, 19.4591157 ] } },
{ "type": "Feature", "properties": { "fid": 31, "osm_id": "11423305669", "code": 5641, "fclass": "BASE DE TAXI", "name": "Base de taxi" }, "geometry": { "type": "Point", "coordinates": [ -99.0486398, 19.4532774 ] } },
{ "type": "Feature", "properties": { "fid": 32, "osm_id": "11423312469", "code": 5641, "fclass": "BASE DE TAXI", "name": "Base de taxis" }, "geometry": { "type": "Point", "coordinates": [ -99.0476085, 19.4763696 ] } },
{ "type": "Feature", "properties": { "fid": 33, "osm_id": "12079578310", "code": 5641, "fclass": "BASE DE TAXI", "name": null }, "geometry": { "type": "Point", "coordinates": [ -99.0619466, 19.4845158 ] } },
{ "type": "Feature", "properties": { "fid": 34, "osm_id": "13089350834", "code": 5601, "fclass": "METRO", "name": "Río de Remedios" }, "geometry": { "type": "Point", "coordinates": [ -99.0468467, 19.4906012 ] } },
{ "type": "Feature", "properties": { "fid": 35, "osm_id": "13089350835", "code": 5601, "fclass": "METRO", "name": "Impulsora" }, "geometry": { "type": "Point", "coordinates": [ -99.0489971, 19.485692 ] } },
{ "type": "Feature", "properties": { "fid": 36, "osm_id": "13089350842", "code": 5601, "fclass": "METRO", "name": "Nezahualcóyotl" }, "geometry": { "type": "Point", "coordinates": [ -99.0546362, 19.4728672 ] } }
]
}
